{
  "familyConnections": {
    "demo-user": [
      {
        "id": 1749306839701,
        "parentUserId": "demo-user",
        "childUserId": "sharanya-child",
        "relationshipType": "parent-child",
        "status": "active",
        "permissions": {
          "location": true,
          "emergency": true,
          "monitoring": true
        },
        "inviteCode": null,
        "inviteExpiry": null,
        "acceptedAt": "2025-06-07T16:58:19.916Z",
        "createdAt": "2025-06-07T16:58:19.916Z"
      }
    ]
  },
  "alertHistory": {
    "demo-user": []
  },
  "emergencyAlerts": {
    "demo-user": [
      {
        "userId": "demo-user",
        "triggerType": "button",
        "latitude": 13.034661789436857,
        "longitude": 77.56241415634524,
        "address": "13.0347, 77.5624",
        "id": 1749469383128,
        "createdAt": "2025-06-09T11:43:03.128Z",
        "updatedAt": "2025-06-09T11:43:07.388Z",
        "isResolved": true
      },
      {
        "userId": "demo-user",
        "triggerType": "voice_detection",
        "latitude": 13.034662338233199,
        "longitude": 77.56241418378441,
        "address": "Voice Detection Location: 13.034662, 77.562414",
        "audioRecordingUrl": "{\"detectedText\":\"danger\",\"scenario\":\"Voice Distress Alert: \\\"danger\\\" detected in speech. Audio Analysis: \\\"danger\\\". Stress Level: HIGH - Automatic trigger activated.\",\"confidence\":0.9}",
        "id": 1749469407463,
        "createdAt": "2025-06-09T11:43:27.463Z",
        "updatedAt": "2025-06-09T11:43:27.463Z",
        "isResolved": false
      },
      {
        "userId": "demo-user",
        "triggerType": "voice_detection",
        "latitude": 13.034662,
        "longitude": 77.562414,
        "address": "Voice Detection Test Location",
        "audioRecordingUrl": "{\"detectedText\":\"help me\",\"scenario\":\"Voice Distress Alert\",\"confidence\":0.9}",
        "id": 1749469536126,
        "createdAt": "2025-06-09T11:45:36.126Z",
        "updatedAt": "2025-06-09T11:45:36.126Z",
        "isResolved": false
      }
    ]
  },
  "communityAlerts": [
    {
      "id": 1749315609711,
      "userId": null,
      "type": "Poor Street Lighting",
      "description": "Street lights are broken in this area making it unsafe at night",
      "latitude": 13.035661,
      "longitude": 77.563437,
      "severity": "high",
      "verified": false,
      "reportedBy": "anonymous",
      "createdAt": "2025-06-07T17:00:09.711Z"
    }
  ],
  "destinations": {
    "demo-user": [
      {
        "id": 1749315520942,
        "userId": "demo-user",
        "name": "Home",
        "latitude": 13.034661,
        "longitude": 77.562437,
        "address": "Bangalore, Karnataka, India",
        "isFavorite": true,
        "createdAt": "2025-06-07T16:58:40.942Z"
      },
      {
        "id": 1749316397942,
        "userId": "demo-user",
        "name": "Home",
        "latitude": 13.034590623504656,
        "longitude": 77.5624475379973,
        "address": "Bangalore, Karnataka, India",
        "isFavorite": true,
        "createdAt": "2025-06-07T17:13:17.942Z"
      },
      {
        "id": 1749316451306,
        "userId": "demo-user",
        "name": "Home",
        "latitude": 13.034659659888272,
        "longitude": 77.56243652153559,
        "address": "Bangalore, Karnataka, India",
        "isFavorite": true,
        "createdAt": "2025-06-07T17:14:11.306Z"
      }
    ]
  },
  "timestamp": "2025-06-09T11:45:36.134Z"
}